RowID,Service,Service Center,State,Postal Code,Address,Latitude,Longitude,Service Details URL,Data As On
SVC1000,Miscellaneous,Bromelton Energy & Resource Centre,QLD,4285,"Lot 1 Beaudesert-Boonah Road, Bromelton QLD",-27.975059190727382,152.92509487274305,https://www.cleanaway.com.au/location/bromelton-energy-and-resource-centre/,2024-08-09 13:06:37
SVC1001,Solid waste services,Albany Material Recovery Facility,WA,6330,"2-16 Cuming Road & 37 Maxwell Street, Albany, WA, 6330",-35.01078332713777,117.8633163813148,https://www.cleanaway.com.au/location/albany/,2024-08-09 13:06:40
SVC1001,Office,Albany Material Recovery Facility,WA,6330,"2-16 Cuming Road & 37 Maxwell Street, Albany, WA, 6330",-35.01078332713777,117.8633163813148,https://www.cleanaway.com.au/location/albany/,2024-08-09 13:06:40
SVC1002,Solid waste services,Albury-Wodonga Solid Waste Services,NSW,2641,"26 Reiff St, Lavington, NSW, 2641",-36.037913,146.964581,https://www.cleanaway.com.au/location/lavington/,2024-08-09 13:06:46
SVC1003,Solid waste services,Alexandra Solid Waste Services,VIC,3714,"4-8 Station Street, Alexandra, VIC, 3714",-37.183192,145.712031,https://www.cleanaway.com.au/location/alexandra/,2024-08-09 13:06:51
SVC1004,Solid waste services,Cleanaway Alice Springs Solid Waste Depot,NT,0870,"6 Wilkinson Street, Ciccone, NT, 0870",-23.700021,133.871345,https://www.cleanaway.com.au/location/alice-springs/,2024-08-09 13:06:57
SVC1005,Solid waste services,Cleanaway Allerton Road Albany Solid Waste Depot,WA,6330,"12 Allerton Road, Albany, WA, 6330",-35.019758,117.842441,https://www.cleanaway.com.au/location/albany-2/,2024-08-09 13:07:02
SVC1006,Solid waste services,Cleanaway Altona - Solid Waste Services,VIC,3018,"72/80 Harcourt Rd, Altona, VIC, 3018",-37.850366199805535,144.78138768865674,https://www.cleanaway.com.au/location/altona/,2024-08-09 13:07:05
SVC1006,Office,Cleanaway Altona - Solid Waste Services,VIC,3018,"72/80 Harcourt Rd, Altona, VIC, 3018",-37.850366199805535,144.78138768865674,https://www.cleanaway.com.au/location/altona/,2024-08-09 13:07:05
SVC1007,Solid waste services,Cleanaway Armidale - Solid Waste Services,NSW,2350,"288 Mann St, Armidale, NSW, 2350",-30.51527835194161,151.64309622948613,https://www.cleanaway.com.au/location/armidale/,2024-08-09 13:07:08
SVC1008,Solid waste services,Artarmon Resource Recovery Centre,NSW,2064,"12 Lancely Place, Artarmon. NSW 2064",-33.81941739932726,151.18695141885684,https://www.cleanaway.com.au/location/cleanaway-artarmon-resource-recovery-centre/,2024-08-09 13:07:12
SVC1009,Solid waste services,Cleanaway Ashmore Solid Waste Services,QLD,4214,"50-60 Harper St, Molendinar QLD 4214",-27.9851011151081,153.36123030773044,https://www.cleanaway.com.au/location/ashmore/,2024-08-09 13:07:18
SVC1010,Solid waste services,Auburn Resource Recovery Centre,NSW,2217,"Old Hill Link, Sydney Olympic Park, NSW 2217",-33.84398343886091,151.05823444596416,https://www.cleanaway.com.au/location/cleanaway-auburn-resource-recovery-centre/,2024-08-09 13:07:22
SVC1011,Solid waste services,Cleanaway Ayr - Solid Waste Services,QLD,4807,"Mackenzie Street, Ayr, QLD, 4807",-19.56460801156244,147.38776649026067,https://www.cleanaway.com.au/location/ayr/,2024-08-09 13:07:27
SVC1011,Office,Cleanaway Ayr - Solid Waste Services,QLD,4807,"Mackenzie Street, Ayr, QLD, 4807",-19.56460801156244,147.38776649026067,https://www.cleanaway.com.au/location/ayr/,2024-08-09 13:07:27
SVC1012,Solid waste services,Cleanaway Bairnsdale Solid Waste Services,VIC,3875,"57 Forge Creek Road, Bairnsdale, VIC, 3875",-37.83739425485061,147.61053899247509,https://www.cleanaway.com.au/location/bairnsdale/,2024-08-09 13:07:33
SVC1013,Solid waste services,Cleanaway Batemans Bay - Solid Waste Services,NSW,2536,"36 Cranbrook Road, Batemans Bay, NSW, 2536",-35.720454277209235,150.1697287150359,https://www.cleanaway.com.au/location/batemans-bay/,2024-08-09 13:07:39
SVC1013,Office,Cleanaway Batemans Bay - Solid Waste Services,NSW,2536,"36 Cranbrook Road, Batemans Bay, NSW, 2536",-35.720454277209235,150.1697287150359,https://www.cleanaway.com.au/location/batemans-bay/,2024-08-09 13:07:39
SVC1014,Solid waste services,Cleanaway Bathurst - Solid Waste Services,NSW,2795,"22 Upfold Street, Bathurst, NSW, 2795",-33.426071238905635,149.58947343947082,https://www.cleanaway.com.au/location/bathurst-2/,2024-08-09 13:07:45
SVC1014,Office,Cleanaway Bathurst - Solid Waste Services,NSW,2795,"22 Upfold Street, Bathurst, NSW, 2795",-33.426071238905635,149.58947343947082,https://www.cleanaway.com.au/location/bathurst-2/,2024-08-09 13:07:45
SVC1015,Solid waste services,Cleanaway Bega - Solid Waste Services,NSW,2550,"116 Kerrison Lane, Bega, NSW, 2550",-36.71134645576057,149.8483112523715,https://www.cleanaway.com.au/location/bega/,2024-08-09 13:07:48
SVC1015,Office,Cleanaway Bega - Solid Waste Services,NSW,2550,"116 Kerrison Lane, Bega, NSW, 2550",-36.71134645576057,149.8483112523715,https://www.cleanaway.com.au/location/bega/,2024-08-09 13:07:48
SVC1016,Solid waste services,Cleanaway Belrose Resource Recovery Centre,NSW,2085,"End of Crozier Road, Belrose. NSW 2085",-33.71595868590502,151.2117178321567,https://www.cleanaway.com.au/location/cleanaway-belrose-resource-recovery-centre/,2024-08-09 13:07:54
SVC1017,Solid waste services,Benalla,VIC,3672,"13 Enterprise Dr, Benalla, VIC, 3672",-36.543278,146.01411,https://www.cleanaway.com.au/location/benalla/,2024-08-09 13:07:59
SVC1018,Solid waste services,Cleanaway Beresfield Newcastle - Solid Waste Services,NSW,2320,"16 Canavan Drive, Beresfield, NSW, 2320",-32.79962745880024,151.63135034262902,https://www.cleanaway.com.au/location/beresfield/,2024-08-09 13:08:01
SVC1019,Miscellaneous,Cleanaway Beresfield CDS Depot,NSW,2322,"2 Balbu Close, Beresfield, NSW, 2322",-32.80884244561758,151.63143037534653,https://www.cleanaway.com.au/location/beresfield-cds-depot/,2024-08-09 13:08:04
SVC1020,Solid waste services,Cleanaway Beresfield - Solid Waste Services,NSW,2322,"2 Balbu Close, Beresfield, NSW, 2322",-32.80876,151.631418,https://www.cleanaway.com.au/location/beresfield-solid-waste/,2024-08-09 13:08:09
SVC1021,Liquid waste services,Cleanaway Bohle – Liquid Waste Services,QLD,4818,"96-102 Enterprise Street, Bohle, QLD, 4818",-19.254033568829477,146.71310062471952,https://www.cleanaway.com.au/location/bohle/,2024-08-09 13:08:13
SVC1021,Industrial waste services,Cleanaway Bohle – Liquid Waste Services,QLD,4818,"96-102 Enterprise Street, Bohle, QLD, 4818",-19.254033568829477,146.71310062471952,https://www.cleanaway.com.au/location/bohle/,2024-08-09 13:08:13
SVC1022,Solid waste services,Cleanaway Bohle - Solid Waste Services,QLD,4818,"77-97 Enterprise Street, Bohle, QLD, 4818",-19.254777104275867,146.71348655131737,https://www.cleanaway.com.au/location/bohle-2/,2024-08-09 13:08:18
SVC1023,Solid waste services,Cleanaway Bowen - Solid Waste Services,QLD,4805,"Reynolds St &, Norris St, Bowen QLD 4805",-20.011933975163764,148.23199791201196,https://www.cleanaway.com.au/location/bowen/,2024-08-09 13:08:22
SVC1024,Solid waste services,Cleanaway Brooklyn Resource Recovery Centre,VIC,3012,"174 Old Geelong Road, Brooklyn, VIC, 3012",-37.81864883651084,144.82808276413695,https://www.cleanaway.com.au/location/brooklyn/,2024-08-09 13:08:24
SVC1025,Solid waste services,Cleanaway Broome Solids Waste Services,WA,6725,"18 Archer St, Broome, WA, 6725",-17.981996102562615,122.20599838161814,https://www.cleanaway.com.au/location/broome/,2024-08-09 13:08:29
SVC1026,Solid waste services,Cleanaway Buckley Grove Moolap Depot,VIC,3224,"61-65 Buckley Grove, Moolap, VIC 3224",-38.16508975539242,144.42933521027365,https://www.cleanaway.com.au/location/buckley-grove-moolap/,2024-08-09 13:08:35
SVC1027,Solid waste services,Cleanaway Bundaberg East - Solid Waste Services,QLD,4670,"Shed 7 - No. 9 Steptoe Street, East Bundaberg, QLD, 4670",-24.864322017617887,152.37487465319953,https://www.cleanaway.com.au/location/bundaberg-2/,2024-08-09 13:08:38
SVC1028,Liquid waste services,Cleanaway Bundaberg Liquid Waste Services,QLD,4670,"46 University Drive, Bundaberg, QLD, 4670",-24.898466154218628,152.30921473282476,https://www.cleanaway.com.au/location/bundaberg/,2024-08-09 13:08:42
SVC1029,Industrial waste services,Cleanaway Burleigh Heads Industrial Waste Services,QLD,4220,"11 Alex Fisher Drive, Burleigh Heads, QLD, 4220",-28.104142115144693,153.4085124092492,https://www.cleanaway.com.au/location/burleigh-heads/,2024-08-09 13:08:48
SVC1030,Liquid waste services,Cleanaway Cairns - Woree Liquid Waste Services,QLD,4868,"44-46 Links Dr, Woree, QLD, 4868",-16.957918274408513,145.75211073879282,https://www.cleanaway.com.au/location/woree/,2024-08-09 13:08:53
SVC1031,Office,Cairns Greenbank Rd,QLD,4870,"63 Greenbank Road, Stratford, QLD, 4870",-16.8695734,145.7404056,https://www.cleanaway.com.au/location/cairns-greenbank-rd/,2024-08-09 13:08:57
SVC1032,Liquid waste services,Cleanaway Campbellfield Contaminated Water and Workshop Waste Services,VIC,3061,"126 Barry Road, Campbellfield, VIC, 3061",-37.66724202087309,144.96513168371325,https://www.cleanaway.com.au/location/campbellfield/,2024-08-09 13:09:01
SVC1033,Office,Campbellfield ERS,VIC,3061,"84-86 Lara Way, Campbellfield, VIC, 3061",-37.66724293021068,144.96512690776305,https://www.cleanaway.com.au/location/campbellfield-ers/,2024-08-09 13:09:05
SVC1033,Public Waste Drop-off,Campbellfield ERS,VIC,3061,"84-86 Lara Way, Campbellfield, VIC, 3061",-37.66724293021068,144.96512690776305,https://www.cleanaway.com.au/location/campbellfield-ers/,2024-08-09 13:09:05
SVC1034,Solid waste services,Cleanaway Chadwick - Solid Waste Services,WA,6450,"41 Simpson Street, Chadwick, WA, 6450",-33.83934506120301,121.8962367468948,https://www.cleanaway.com.au/location/esperance-chadwick/,2024-08-09 13:09:08
SVC1034,Office,Cleanaway Chadwick - Solid Waste Services,WA,6450,"41 Simpson Street, Chadwick, WA, 6450",-33.83934506120301,121.8962367468948,https://www.cleanaway.com.au/location/esperance-chadwick/,2024-08-09 13:09:08
SVC1035,Miscellaneous,Cleanaway Clarinda Carroll Road Landfill,VIC,3169,"Carroll Road, Clarinda, VIC, 3169",-37.932723984843136,145.09372689856437,https://www.cleanaway.com.au/location/clarinda/,2024-08-09 13:09:12
SVC1036,Solid waste services,Cleanaway Clayton South Resource Recovery Centre,VIC,3169,"cnr Fraser Rd & Deals Rd, Clayton South, VIC, 3169",-37.94525778103721,145.12222022243114,https://www.cleanaway.com.au/location/clayton-resource-recovery-centre/,2024-08-09 13:09:16
SVC1037,Solid waste services,Cleanaway Coffs Harbour - Solid Waste Depot,NSW,2450,"754 Pacific Hwy, Boambee, NSW, 2450",-30.34413261205187,153.0689147374826,https://www.cleanaway.com.au/location/coffs-harbour/,2024-08-09 13:09:22
SVC1038,Solid waste services,﻿Cleanaway Coolaroo Material Recovery Facility,VIC,3048,"94 Maffra Street, Coolaroo, Vic, 3048",-37.65780523582004,144.94172450275,https://www.cleanaway.com.au/location/coolaroo/,2024-08-09 13:09:29
SVC1039,Solid waste services,Cleanaway Craiglie - Solid Waste Services,QLD,4877,"10 Teamsters Close, Craiglie, QLD, 4877",-16.538147,145.467558,https://www.cleanaway.com.au/location/craiglie/,2024-08-09 13:09:33
SVC1040,Liquid waste services,Cleanaway Crestmead - Liquid Waste Services,QLD,4132,"10 Platinum Street, Crestmead, QLD, 4132",-27.67874837810533,153.07619591827643,https://www.cleanaway.com.au/location/crestmead/,2024-08-09 13:09:37
SVC1041,Liquid waste services,Cleanaway Dandenong Liquid Waste Services,VIC,3175,"88-92 Ordish Road, Dandenong South, VIC, 3175",-38.0256031576796,145.1924643073468,https://www.cleanaway.com.au/location/dandenong-south-twt/,2024-08-09 13:09:44
SVC1042,Liquid waste services,"Cleanaway Dandenong Oil, Workshop, and Parts Washer Waste Services",VIC,3175,"19-21 Berends Drive, Dandenong South, VIC, 3175",-38.02921405347477,145.19611213703328,https://www.cleanaway.com.au/location/dandenong-south-nwo/,2024-08-09 13:09:48
SVC1043,Solid waste services,Cleanaway Dandenong South SEMTS - Solid Waste Services,VIC,3175,"73-85 Thomas Murrell Crescent, Dandenong South, Victoria, 3175",-38.02157293522325,145.19341874916216,https://www.cleanaway.com.au/location/dandenong-semts/,2024-08-09 13:09:51
SVC1043,Transfer Station,Cleanaway Dandenong South SEMTS - Solid Waste Services,VIC,3175,"73-85 Thomas Murrell Crescent, Dandenong South, Victoria, 3175",-38.02157293522325,145.19341874916216,https://www.cleanaway.com.au/location/dandenong-semts/,2024-08-09 13:09:51
SVC1044,Office,Dandenong Skin & Hyde,VIC,3175,"91 Ordish Road, Dandenong, VIC, 3175",-38.0235617,145.1928241,https://www.cleanaway.com.au/location/dandenong-skin-hyde/,2024-08-09 13:09:55
SVC1045,Solid waste services,Cleanaway Dandenong South Solid Waste Depot,VIC,3175,349 Perry Road Dandenong South VIC 3175 Australia,-38.03302757295915,145.1873499510967,https://www.cleanaway.com.au/location/dandenong-south-solid-waste-depot/,2024-08-09 13:09:58
SVC1046,Solid waste services,Cleanaway Dandenong South - Solid Waste Services,VIC,3175,"72/76 Thomas Murrell Cres, Dandenong South, VIC, 3175",-38.02104115065446,145.19383424900428,https://www.cleanaway.com.au/location/dandenong-south/,2024-08-09 13:10:02
SVC1047,Cleanaway Daniels,Cleanaway Daniels Bibra Lake - Medical Waste Services,WA,6163,"19 Coolibah Way, Bibra Lake, WA, 6163",-32.11182749087542,115.81300083055092,https://www.cleanaway.com.au/location/bibra-lake/,2024-08-09 13:10:07
SVC1048,Cleanaway Daniels,Cleanaway Daniels Dandenong South - Medical Waste Services,VIC,3175,"34-36 Cahill Street, Dandenong South, VIC, 3175",-38.02640825790237,145.19616706193867,https://www.cleanaway.com.au/location/cleanaway-daniels-dandenong/,2024-08-09 13:10:14
SVC1049,Cleanaway Daniels,Cleanaway Daniels Laverton North - Health Services,VIC,3026,"110 Dohertys Road, Laverton North, VIC, 3026",-37.828075937035166,144.79158837975473,https://www.cleanaway.com.au/location/cleanaway-daniels-laverton-north/,2024-08-09 13:10:18
SVC1050,Miscellaneous,Cleanaway Daniel’s Mitchell – Medical Waste Services,ACT,2911,"Building 1, 9 Sandford Street, Mitchell, ACT, 2911",-35.22250147154668,149.14199225813613,https://www.cleanaway.com.au/location/mitchell/,2024-08-09 13:10:22
SVC1051,Cleanaway Daniels,Cleanaway Daniels Silverwater – Medical Waste Services,NSW,2128,"41 Vore Street (Units 1 & 2, 108-120 Silverwater Rd), Silverwater, NSW, 2128",-33.83478498364579,151.0462533209851,https://www.cleanaway.com.au/location/cleanaway-daniels-vore-street-silverwater/,2024-08-09 13:10:25
SVC1052,Cleanaway Daniels,Cleanaway Daniels Wiblin Street Silverwater – Medical Waste Services,NSW,2128,"2-12-16 Wiblin Street, Silverwater, NSW, 2128",-33.8366922261095,151.0461036704018,https://www.cleanaway.com.au/location/cleanaway-daniels-wiblin-street-silverwater/,2024-08-09 13:10:30
SVC1053,Cleanaway Daniels,Cleanaway Daniels Wingfield - Medical Waste Services,SA,5017,"44-46 Francis Rd, Wingfield, SA, 5017",-34.84472759356661,138.54820707429565,https://www.cleanaway.com.au/location/cleanaway-daniels-wingfield/,2024-08-09 13:10:36
SVC1054,Cleanaway Daniels,Cleanaway Daniels Yatala - Medical Waste Services,QLD,4207,"Unit 4/63 Burnside Road, Yatala, QLD, 4207",-27.74922478049947,153.24447788220166,https://www.cleanaway.com.au/location/cleanaway-daniels-yatala/,2024-08-09 13:10:41
SVC1055,Solid waste services,Cleanaway Dardanup Solid Waste Services,WA,6236,"Lot 2, Banksia Road, Dardanup, WA, 6236",-33.42629127314418,115.77764919907574,https://www.cleanaway.com.au/location/dardanup/,2024-08-09 13:10:45
SVC1056,Industrial waste services,Cleanaway Darra Industrial Waste Services,QLD,4076,"20-28 Machinery Street, Darra, QLD, 4076",-27.578280348233992,152.94684511714811,https://www.cleanaway.com.au/location/darra/,2024-08-09 13:10:51
SVC1057,Solid waste services,Cleanaway Dawesville Solid Waste Services,WA,6211,"Tims Thicket Road, Dawesville, WA, 6211",-32.65237916212816,115.621299249341,https://www.cleanaway.com.au/location/dawesville/,2024-08-09 13:10:56
SVC1058,Solid waste services,Cleanaway Delacombe - Solid Waste Services,VIC,3350,"20 Douglas Street, Delacombe, VIC, 3350",-37.57480062234263,143.82535028354164,https://www.cleanaway.com.au/location/delacombe/,2024-08-09 13:11:00
SVC1058,Office,Cleanaway Delacombe - Solid Waste Services,VIC,3350,"20 Douglas Street, Delacombe, VIC, 3350",-37.57480062234263,143.82535028354164,https://www.cleanaway.com.au/location/delacombe/,2024-08-09 13:11:00
SVC1059,Solid waste services,Cleanaway Derby Solid Waste Services,WA,6728,"Lot 909 Millard Street, Derby, WA, 6728",-17.317786617399953,123.6488173913029,https://www.cleanaway.com.au/location/derby/,2024-08-09 13:11:04
SVC1060,Solid waste services,Cleanaway Derwent Park MRF,TAS,7009,"127 Derwent Park Road, Derwent Park TAS 7009",-42.8345726871458,147.30535362602515,https://www.cleanaway.com.au/location/derwent-park/,2024-08-09 13:11:09
SVC1061,Solid waste services,Cleanaway Doonan - Solid Waste Services,QLD,4567,"561 Eumundi Noosa Rd, Doonan, QLD, 45674566",-26.435816,153.024719,https://www.cleanaway.com.au/location/noosaville/,2024-08-09 13:11:14
SVC1062,Solid waste services,Cleanaway Dubbo - Solid Waste Services,NSW,2830,"2/2 Jannali Road, West Dubbo, NSW, 2830",-32.2415533993811,148.58408019422927,https://www.cleanaway.com.au/location/dubbo/,2024-08-09 13:11:16
SVC1062,Office,Cleanaway Dubbo - Solid Waste Services,NSW,2830,"2/2 Jannali Road, West Dubbo, NSW, 2830",-32.2415533993811,148.58408019422927,https://www.cleanaway.com.au/location/dubbo/,2024-08-09 13:11:16
SVC1063,Solid waste services,Cleanaway Dundowran CDS Depot,QLD,4655,"9 Industrial Ave. Dundowran, QLD, 4655",-25.295948827561027,152.79123023106774,https://www.cleanaway.com.au/location/dundowran-depot/,2024-08-09 13:11:22
SVC1064,Solid waste services,Cleanaway East Bendigo - Solid Waste Services,VIC,3551,"63-69 Beischer Street, East Bendigo, VIC, 3551",-36.75230709865194,144.3090067887239,https://www.cleanaway.com.au/location/bendigo/,2024-08-09 13:11:26
SVC1064,Office,Cleanaway East Bendigo - Solid Waste Services,VIC,3551,"63-69 Beischer Street, East Bendigo, VIC, 3551",-36.75230709865194,144.3090067887239,https://www.cleanaway.com.au/location/bendigo/,2024-08-09 13:11:26
SVC1065,Solid waste services,Cleanaway Eastern Creek Solids Waste Services,NSW,2766,"1A Raffles Glade, Eastern Creek, NSW, 2766",-33.79913305824948,150.83532951555915,https://www.cleanaway.com.au/location/eastern-creek/,2024-08-09 13:11:32
SVC1066,Solid waste services,Cleanaway Emerald - Solid Waste Services,QLD,4720,"23 Cotton View Rd, Emerald, QLD, 4720",-23.50416947847322,148.1495913433463,https://www.cleanaway.com.au/location/emerald/,2024-08-09 13:11:38
SVC1067,Solid waste services,Cleanaway Erskine Park Landfill,NSW,2759,"85-87 Quarry Road, Erskine Park NSW 2759",-33.81832018464325,150.78372355116778,https://www.cleanaway.com.au/location/erskine-park-landfill/,2024-08-09 13:11:44
SVC1068,Solid waste services,Cleanaway Erskine Park - Solid Waste Services,NSW,2759,"48 Quarry Road, Erskine Park, NSW, 2759",-33.81914272186035,150.78191547347808,https://www.cleanaway.com.au/location/erskine-park-solid-waste/,2024-08-09 13:11:49
SVC1069,Transfer Station,Erskine Park Transfer Station,NSW,2759,"85-87 Quarry Road, Erskine Park, NSW, 2759",-33.8188823594222,150.7831135000006,https://www.cleanaway.com.au/location/erskine-park-transfer-station/,2024-08-09 13:11:54
SVC1069,Office,Erskine Park Transfer Station,NSW,2759,"85-87 Quarry Road, Erskine Park, NSW, 2759",-33.8188823594222,150.7831135000006,https://www.cleanaway.com.au/location/erskine-park-transfer-station/,2024-08-09 13:11:54
SVC1070,Solid waste services,Cleanaway Geraldton-Webberton Solid Waste Services,WA,6530,"11 Connolly Street, Webberton , WA, 6530",-28.74827835685485,114.62827788098733,https://www.cleanaway.com.au/location/webberton/,2024-08-09 13:12:01
SVC1071,Industrial waste services,Cleanaway Gladstone - Industrial Waste Services,QLD,4680,"41 Guerassimoff Road, Gladstone, QLD, 4680",-23.80979455426217,151.14810492116328,https://www.cleanaway.com.au/location/yarwun/,2024-08-09 13:12:05
SVC1072,Liquid waste services,Cleanaway Glendenning - Liquid Waste Services,NSW,2761,"6-8 Rayben Street, Glendenning, NSW, 2761",-33.75056846092886,150.85632264327973,https://www.cleanaway.com.au/location/glendenning/,2024-08-09 13:12:09
SVC1073,Solid waste services,Cleanaway Glendenning Municipal Collections Site,NSW,2761,"43 Cox Place, Glendenning NSW 2761",-33.7491765448081,150.84725438595396,https://www.cleanaway.com.au/location/cox-place-glendenning/,2024-08-09 13:12:13
SVC1074,Solid waste services,Cleanaway Glenorchy Solid Waste Services,TAS,7010,1 Mckay Avenue Glenorchy TAS 7010,-42.82819751549476,147.27509695317426,https://www.cleanaway.com.au/location/glenorchy/,2024-08-09 13:12:16
SVC1075,Miscellaneous,Cleanaway Grafton Depot,NSW,2460,"Shed 35, 160-170 North Street, Grafton, NSW, 2460",-29.670985262627195,152.9398891754968,https://www.cleanaway.com.au/location/grafton/,2024-08-09 13:12:22
SVC1076,Solid waste services,Cleanaway Greenacre - Solid Waste Services,NSW,2190,"44 Claremont Avenue, Greenacre, NSW, 2190",-33.901456652112174,151.03822187131976,https://www.cleanaway.com.au/location/greenacre/,2024-08-09 13:12:25
SVC1077,Solid waste services,Cleanaway Griffith - Solid Waste Services,NSW,2680,"88 Wakaden Street, Griffith, NSW, 2680",-34.288498,146.067276,https://www.cleanaway.com.au/location/griffith/,2024-08-09 13:12:29
SVC1078,Solid waste services,Cleanaway Gympie - Solid Waste Services,QLD,4570,"19 Dennis Little Drive, Gympie, QLD, 4570",-26.223868,152.698278,https://www.cleanaway.com.au/location/gympie/,2024-08-09 13:12:35
SVC1079,Transfer Station,Cleanaway Hallam Material Recovery Transfer Station,VIC,3803,"39 Wedgewood Drive, Hallam, Vic, 3803",-38.0086916161689,145.25558345278245,https://www.cleanaway.com.au/location/hallam/,2024-08-09 13:12:39
SVC1080,Liquid waste services,Cleanaway Heatherbrae Liquid Waste Services,NSW,2324,"42 Heather Street, Heatherbrae, NSW, 2324",-32.78798584680819,151.7351288525832,https://www.cleanaway.com.au/location/heatherbrae/,2024-08-09 13:12:43
SVC1081,Miscellaneous,Hemmant Packaging Waste Recycling: Cardboard Paper Plastics,QLD,4174,"94 Anton Road, Hemmant, QLD, 4174",-27.431895041434345,153.1322474976208,https://www.cleanaway.com.au/location/hemmant/,2024-08-09 13:12:48
SVC1082,Liquid waste services,Cleanaway Henderson Waste Water Treatment Facility,WA,6166,"24 Stuart Drive, Henderson, WA, 6166",-32.16433268677475,115.77648794262564,https://www.cleanaway.com.au/location/henderson/,2024-08-09 13:12:52
SVC1083,Solid waste services,Cleanaway Hervey Bay – MRF,QLD,4655,"48-50 Industrial Ave.Dundowran, Hervey Bay, QLD, 4655",-25.29723080693281,152.7925287907059,https://www.cleanaway.com.au/location/dundowran/,2024-08-09 13:12:58
SVC1084,Solid waste services,Cleanaway Hervey Bay Municipal,QLD,4655,"18-20 Ellengowan Street, Urangan, Hervey Bay, QLD, 4655",-25.316874658210253,152.88993332407378,https://www.cleanaway.com.au/location/urangan/,2024-08-09 13:13:04
SVC1085,Liquid waste services,Cleanaway Holtze Solid Waste Depot,NT,0829,"875 Stuart Highway, Holtze, NT, 0829",-12.452588140179698,130.96376462949073,https://www.cleanaway.com.au/location/darwin-holtze/,2024-08-09 13:13:10
SVC1085,Industrial waste services,Cleanaway Holtze Solid Waste Depot,NT,0829,"875 Stuart Highway, Holtze, NT, 0829",-12.452588140179698,130.96376462949073,https://www.cleanaway.com.au/location/darwin-holtze/,2024-08-09 13:13:10
SVC1086,Solid waste services,Cleanaway Hume - Solid Waste Services,ACT,2620,"88 Sawmill Cct, Hume, ACT, 2620",-35.39688911546692,149.15948837314696,https://www.cleanaway.com.au/location/hume/,2024-08-09 13:13:14
SVC1087,Solid waste services,Cleanaway Inkerman - Solid Waste Services,SA,5501,"Landfill Waste Service Prime Road, Inkerman, SA, 5501",-34.283768033796704,138.25928876407573,https://www.cleanaway.com.au/location/inkerman/,2024-08-09 13:13:19
SVC1088,Solid waste services,Cleanaway Innisfail - Solid Waste Services,QLD,4860,"70 Goondi Mill Road, Innisfail, QLD, 4860",-17.51205952580729,146.00660426734922,https://www.cleanaway.com.au/location/innisfail/,2024-08-09 13:13:24
SVC1089,Liquid waste services,Cleanaway Invermay - Liquid & Industrial Waste Services,TAS,7248,"29 Churchill Park Dr, Invermay, TAS, 7248",-41.417534657925245,147.1432381449959,https://www.cleanaway.com.au/location/invermay/,2024-08-09 13:13:31
SVC1090,Solid waste services,Cleanaway Kalgoorlie - Solid Waste Services,WA,6430,"5 Carnegie Street, Kalgoorlie, WA, 6430",-30.7858236500685,121.44167060172626,https://www.cleanaway.com.au/location/kalgoorlie-2/,2024-08-09 13:13:35
SVC1091,Miscellaneous,Kalgoorlie Waste Depot,WA,6430,"5, Carnegie St. Broadwood Western Australia, 6430",-30.78590146457046,121.4415959498276,https://www.cleanaway.com.au/location/kalgoorlie-boulder-csw/,2024-08-09 13:13:40
SVC1092,Industrial waste services,Cleanaway Karratha Industrial Waste Services,WA,6714,"Lot 126 Tom Price Road, Cooya Pooya, WA 6714",-20.8070954635893,116.77351190870094,https://www.cleanaway.com.au/location/karratha-industrial-services/,2024-08-09 13:13:45
SVC1093,Solid waste services,Cleanaway Karratha - Solid Waste Depot,WA,6714,"Lot 609 Warlu Rd, Cooya Pooya WA 6714",-20.811025148568405,116.77345550898944,https://www.cleanaway.com.au/location/karratha/,2024-08-09 13:13:48
SVC1094,Solid waste services,Cleanaway Katherine - Solid Waste Services,NT,0850,"2 Murray Street, Katherine, NT, 0850",-14.483119441103426,132.25791713483042,https://www.cleanaway.com.au/location/katherine/,2024-08-09 13:13:52
SVC1095,Solid waste services,Cleanaway Katoomba – Solid Waste Services,NSW,2780,"41 Barton Street, Katoomba, NSW, 2780",-33.70124863930182,150.31654471987724,https://www.cleanaway.com.au/location/katoomba/,2024-08-09 13:13:58
SVC1095,Office,Cleanaway Katoomba – Solid Waste Services,NSW,2780,"41 Barton Street, Katoomba, NSW, 2780",-33.70124863930182,150.31654471987724,https://www.cleanaway.com.au/location/katoomba/,2024-08-09 13:13:58
SVC1096,Solid waste services,Cleanaway Kemps Creek Resource Recovery Park,NSW,2178,"1725 Elizabeth Drive, Kemps Creek. NSW 2178",-33.86945869624841,150.7624556675415,https://www.cleanaway.com.au/location/cleanaway-kemps-creek-resource-recovery-park/,2024-08-09 13:14:02
SVC1097,Industrial waste services,Cleanaway Kooragang - Industrial Waste Services,NSW,2304,"19 Egret Street, Kooragang, NSW, 2304",-32.88018550749655,151.767324081438,https://www.cleanaway.com.au/location/kooragang-industrial/,2024-08-09 13:14:06
SVC1098,Liquid waste services,Cleanaway Kooragang TTS – Liquid Waste Services,NSW,2304,"47 Raven Street, Kooragang Island, NSW, 2304",-32.88023893004462,151.76733075808517,https://www.cleanaway.com.au/location/kooragang-tts/,2024-08-09 13:14:11
SVC1099,Office,Cleanaway Koorlong Mildura Solid Waste Service,VIC,3500,"428 Magnum Avenue, Koorlong (Mildura), VIC, 3500",-34.3392551,142.0981271,https://www.cleanaway.com.au/location/koorlong/,2024-08-09 13:14:15
SVC1100,Office,Kronkup,WA,6330,"Lower Denmark Road, Kronkup, WA, 6330",-35.0207326,117.6844069,https://www.cleanaway.com.au/location/kronkup/,2024-08-09 13:14:21
SVC1101,Solid waste services,Cleanaway Kununurra Depot,WA,6743,"1 Kentia Way, Kununurra , WA, 6743",-15.757934871018726,128.7460208588387,https://www.cleanaway.com.au/location/kununurra/,2024-08-09 13:14:25
SVC1102,Industrial waste services,Cleanaway Kwinana - Industrial Waste Services,WA,6167,"27 Beach Street, Kwinana Beach, WA, 6167",-32.24411646774499,115.78033381094964,https://www.cleanaway.com.au/location/kwinana/,2024-08-09 13:14:31
SVC1102,Office,Cleanaway Kwinana - Industrial Waste Services,WA,6167,"27 Beach Street, Kwinana Beach, WA, 6167",-32.24411646774499,115.78033381094964,https://www.cleanaway.com.au/location/kwinana/,2024-08-09 13:14:31
SVC1103,Liquid waste services,Cleanaway Kwinana - Technical and Environmental Services,WA,6167,"Lot 4 Mason Road, Kwinana Beach, WA, 6167",-32.224363166799755,115.77669195174768,https://www.cleanaway.com.au/location/kwinana-tes/,2024-08-09 13:14:36
SVC1104,Solid waste services,Cleanaway Laverton MRF and Plastic Recovery Facility,VIC,3026,"32 Gilbertson Rd, Laverton, Vic, 3026",-37.82160991723898,144.79576105261842,https://www.cleanaway.com.au/location/laverton-mrf/,2024-08-09 13:14:41
SVC1105,Liquid waste services,Cleanaway Laverton Technical Waste Services,VIC,3026,"83 Dohertys Road, Laverton North, VIC, 3026",-37.829259684202576,144.79461135320793,https://www.cleanaway.com.au/location/laverton-north/,2024-08-09 13:14:47
SVC1106,Solid waste services,Cleanaway Leongatha Municipal Solid Waste Services,VIC,3953,"1 Cusack Rd, Leongatha, VIC, 3953",-38.46515802548319,145.95943114716567,https://www.cleanaway.com.au/location/leongatha/,2024-08-09 13:14:50
SVC1106,Office,Cleanaway Leongatha Municipal Solid Waste Services,VIC,3953,"1 Cusack Rd, Leongatha, VIC, 3953",-38.46515802548319,145.95943114716567,https://www.cleanaway.com.au/location/leongatha/,2024-08-09 13:14:50
SVC1107,Solid waste services,Cleanaway Lismore CDS Solid Waste Depot,NSW,2480,"17 Habib Drive, Lismore, NSW, 2480",-28.822906277110995,153.26188231950778,https://www.cleanaway.com.au/location/lismore/,2024-08-09 13:14:54
SVC1108,Solid waste services,Cleanaway Lonsdale - Solid Waste Services,SA,5160,"Lot 79 Liston Road, Lonsdale, SA, 5160",-35.096019826247016,138.50125136275895,https://www.cleanaway.com.au/location/lonsdale-lot-79-liston-road/,2024-08-09 13:15:00
SVC1109,Miscellaneous,Cleanaway Lonsdale - Waste and Recycling Depot,SA,5160,"10 Donegal Road , Lonsdale, SA, 5160",-35.11899613364654,138.49303886929948,https://www.cleanaway.com.au/location/lonsdale-sawaste/,2024-08-09 13:15:04
SVC1110,Solid waste services,Lucas Heights Organic Resource Recovery Facility,NSW,2234,"Little Forest Road, Lucas Heights. NSW 2234",-34.0458007,150.9736569,https://www.cleanaway.com.au/location/cleanaway-lucas-heights-orrf/,2024-08-09 13:15:10
SVC1111,Solid waste services,Cleanaway Lucas Heights Resource Recovery Park,NSW,2234,"Little Forest Road, Lucas Heights. NSW 2234",-34.04483428673299,150.9731024434171,https://www.cleanaway.com.au/location/cleanaway-lucas-heights-rrp/,2024-08-09 13:15:14
SVC1112,Solid waste services,Cleanaway Lysterfield Resource Recovery Centre,VIC,3156,"840 Wellington Road, Lysterfield, VIC, 3156",-37.943951894124,145.3191043353757,https://www.cleanaway.com.au/location/lysterfield/,2024-08-09 13:15:17
SVC1113,Miscellaneous,Maddington Jade Street,WA,6109,"22-24 Jade Street, Maddington, WA, 6109",-32.03925999544982,115.99922766376258,https://www.cleanaway.com.au/location/maddington-2/,2024-08-09 13:15:22
SVC1114,Liquid waste services,Maddington Kenwick Rd Liquid Waste Services,WA,6109,"280 Kenwick Road, Maddington, WA, 6109",-32.02958970620715,115.99848870307105,https://www.cleanaway.com.au/location/maddington-kenwick/,2024-08-09 13:15:29
SVC1115,Miscellaneous,Maddington Valencia Way,WA,6109,"Lot 579 Valencia Way, Maddington, WA, 6109",-32.03567189355669,115.99618977792728,https://www.cleanaway.com.au/location/maddington/,2024-08-09 13:15:34
SVC1116,Solid waste services,Cleanaway Malaga - Solid Waste Services,WA,6530,"171 Camboon Road, Malaga, WA, 6530",-31.866000861367517,115.88811538148046,https://www.cleanaway.com.au/location/malaga/,2024-08-09 13:15:40
SVC1117,Solid waste services,Cleanaway Mandurah - Solid Waste Services,WA,6210,"101 Park Road, Mandurah, WA, 6210",-32.51531772998657,115.7438272000268,https://www.cleanaway.com.au/location/mandurah-2/,2024-08-09 13:15:44
SVC1118,Transfer Station,Mandurah Tip: Transfer Station,WA,6180,"80 Corsican Pl, Parklands, WA, 6180",-32.504415610631085,115.75982899045232,https://www.cleanaway.com.au/location/mandurah/,2024-08-09 13:15:48
SVC1119,Solid waste services,Cleanaway Manjimup — Solid Waste Depot,WA,6258,"9 Gandy Street, Manjimup, WA, 6258",-34.25550049801965,116.149420262724,https://www.cleanaway.com.au/location/manjimup-solid-waste/,2024-08-09 13:15:52
SVC1120,Office,Mansfield,VIC,3722,"C/- Trans Ag. Withers Lane, Mansfield, VIC, 3722",-37.0521693,146.0881238,https://www.cleanaway.com.au/location/mansfield/,2024-08-09 13:15:57
SVC1121,Solid waste services,Cleanaway Margaret River Solid Waste Depot,WA,6285,"17 Auger Way, Margaret River, WA, 6285",-33.96672800321526,115.07210875324134,https://www.cleanaway.com.au/location/margaret-river/,2024-08-09 13:16:01
SVC1121,Office,Cleanaway Margaret River Solid Waste Depot,WA,6285,"17 Auger Way, Margaret River, WA, 6285",-33.96672800321526,115.07210875324134,https://www.cleanaway.com.au/location/margaret-river/,2024-08-09 13:16:01
SVC1122,Office,Cleanaway Melbourne Corporate Head Office,VIC,3004,"Level 4, 441 St Kilda Road, Melbourne, VIC, 3004",-37.83943217730081,144.97763336491647,https://www.cleanaway.com.au/location/melbourne/,2024-08-09 13:16:06
SVC1123,Solid waste services,Cleanaway Mildura - Solid Waste Services,VIC,3500,"359 Benetook Avenue, Mildura, VIC, 3500",-34.199754995397875,142.17421414333316,https://www.cleanaway.com.au/location/mildura/,2024-08-09 13:16:12
SVC1123,Liquid waste services,Cleanaway Mildura - Solid Waste Services,VIC,3500,"359 Benetook Avenue, Mildura, VIC, 3500",-34.199754995397875,142.17421414333316,https://www.cleanaway.com.au/location/mildura/,2024-08-09 13:16:12
SVC1124,Office,Cleanaway Milton Corporate Office,QLD,4064,"Level 7, 135 Coronation Drive, Milton, QLD, 4064",-27.470353744143598,153.00765615951624,https://www.cleanaway.com.au/location/milton/,2024-08-09 13:16:18
SVC1125,Solid waste services,Cleanaway Monash Solid Waste Transfer Station,SA,5342,"92 Hoskin Road, Monash, SA, 5342",-34.25684598862214,140.6050889362727,https://www.cleanaway.com.au/location/monash/,2024-08-09 13:16:22
SVC1126,Liquid waste services,Cleanaway Moranbah - Liquid Waste Services,QLD,4744,"13 - 19 Thorpe Street, Moranbah, QLD, 4744",-21.98603455754195,148.01488531938543,https://www.cleanaway.com.au/location/moranbah/,2024-08-09 13:16:28
SVC1127,Solid waste services,Cleanaway Morningside - Solid Waste Services,QLD,4170,"42 Manton Street , Morningside, QLD, 4170",-27.452751757838957,153.07732429982818,https://www.cleanaway.com.au/location/morningside/,2024-08-09 13:16:34
SVC1128,Solid waste services,Cleanaway Mornington - Solid Waste Services,VIC,3931,"12A Carbine Way, Mornington, VIC, 3931",-38.23047984961146,145.06867493070044,https://www.cleanaway.com.au/location/mornington-2/,2024-08-09 13:16:39
SVC1128,Office,Cleanaway Mornington - Solid Waste Services,VIC,3931,"12A Carbine Way, Mornington, VIC, 3931",-38.23047984961146,145.06867493070044,https://www.cleanaway.com.au/location/mornington-2/,2024-08-09 13:16:39
SVC1129,Industrial waste services,Cleanaway Morwell Industrial Waste Services,VIC,3840,6-8 Wegner Street Morwell Victoria 3840,-38.22987945430703,146.39682829111084,https://www.cleanaway.com.au/location/morwell-industrial-waste-services/,2024-08-09 13:16:43
SVC1130,Solid waste services,Cleanaway Morwell Solid Waste Services Municipal,VIC,3840,"132-160 Princes Drive (Corser Rd), Morwell, VIC, 3840",-38.2335502609417,146.44215252731158,https://www.cleanaway.com.au/location/morwell-municipal/,2024-08-09 13:16:50
SVC1131,Solid waste services,Cleanaway Mount Gambier Depot,SA,5290,"7 Eucalypt Drive, Mount Gambier, SA, 5290",-37.84419478990542,140.8039420311392,https://www.cleanaway.com.au/location/mount-gambier/,2024-08-09 13:16:54
SVC1132,Liquid waste services,Cleanaway Mt. Isa - Liquid and Industrial Waste Services,QLD,4825,"13 Northridge Rd, Kalkadoon, QLD, 4825",-20.688098241779148,139.48826886228483,https://www.cleanaway.com.au/location/mt-isa/,2024-08-09 13:16:58
SVC1133,Industrial waste services,Cleanaway Mulgrave Industrial Waste Services,VIC,3170,"10-16 Geddes Street, Mulgrave, VIC, 3170",-37.90667170885494,145.15499356349,https://www.cleanaway.com.au/location/mulgrave/,2024-08-09 13:17:03
SVC1134,Liquid waste services,Cleanaway Narangba – Hazardous Liquid Waste Services,QLD,4504,"8-12 Krypton Street, Narangba, QLD, 4504",-27.198908583422064,153.00245588654735,https://www.cleanaway.com.au/location/narangba-liquid-waste-services/,2024-08-09 13:17:09
SVC1135,Solid waste services,Cleanaway Narangba Solid Waste Municipal,QLD,4504,"56 - 60 Saltwater Circuit, Narangba, QLD, 4504",-27.206933789931885,152.9885814522348,https://www.cleanaway.com.au/location/narangba-2/,2024-08-09 13:17:14
SVC1136,Miscellaneous,Cleanaway Narangba Vacuum Truck Liquid Waste Services,QLD,4504,"109 Potassium Street, Narangba, QLD, 4504",-27.1971304,152.9984246,https://www.cleanaway.com.au/location/narangba/,2024-08-09 13:17:19
SVC1137,Liquid waste services,Cleanaway Narangba Waste Facility,QLD,4504,"26-32 Potassium Street, Narangba, QLD, 4504",-27.19965296246061,153.00675098434937,https://www.cleanaway.com.au/location/narangba-3/,2024-08-09 13:17:22
SVC1138,Solid waste services,Cleanaway Narangba - Waste Transfer Station,QLD,4504,"200 Potassium Street, Narangba, QLD, 4504",-27.198941361528483,152.98986424218432,https://www.cleanaway.com.au/location/narangba-transfer-station/,2024-08-09 13:17:26
SVC1139,Solid waste services,Cleanaway New Chum - Solid Waste Services,QLD,4303,"100 Chum Street, New Chum, QLD, 4303",-27.607929297837284,152.83432464445465,https://www.cleanaway.com.au/location/new-chum/,2024-08-09 13:17:32
SVC1140,Solid waste services,Cleanaway Newman Solid Waste Depot,WA,6753,"1568 Woodstock street, Newman, WA, 6753",-23.37238971273152,119.7304318632627,https://www.cleanaway.com.au/location/newman/,2024-08-09 13:17:36
SVC1140,Industrial waste services,Cleanaway Newman Solid Waste Depot,WA,6753,"1568 Woodstock street, Newman, WA, 6753",-23.37238971273152,119.7304318632627,https://www.cleanaway.com.au/location/newman/,2024-08-09 13:17:36
SVC1141,Miscellaneous,Cleanaway Newstead — Solid Waste Services,TAS,7250,"37 Birch Avenue, Newstead, TAS, 7250",-41.43499492006276,147.16411281003428,https://www.cleanaway.com.au/location/newstead/,2024-08-09 13:17:43
SVC1142,Industrial waste services,Cleanaway Nhulunbuy - Industrial Waste Services,NT,0880,"1 Melville Bay Road, C/O Rio Tinto Gove Nhulunbuy, NT, 0880",-12.190803970805476,136.75348626523842,https://www.cleanaway.com.au/location/nhulunbuy/,2024-08-09 13:17:48
SVC1143,Solid waste services,Cleanaway Northgate - Solid Waste Services,QLD,4013,"172 Crockford Street, Northgate, QLD, 4013",-27.389485848175312,153.08118133290225,https://www.cleanaway.com.au/location/northgate/,2024-08-09 13:17:54
SVC1144,Solid waste services,Cleanaway Nowra - Solid Waste Services,NSW,2541,"7 Tom Thumb Avenue, Nowra, NSW, 2541",-34.91319521406604,150.57975414316385,https://www.cleanaway.com.au/location/nowra/,2024-08-09 13:17:58
SVC1144,Office,Cleanaway Nowra - Solid Waste Services,NSW,2541,"7 Tom Thumb Avenue, Nowra, NSW, 2541",-34.91319521406604,150.57975414316385,https://www.cleanaway.com.au/location/nowra/,2024-08-09 13:17:58
SVC1145,Miscellaneous,Cleanaway Orange Depot - Health Services,NSW,2800,"Unit 1, 191 Byng Street, Orange, NSW, 2800",-33.28154054011117,149.1072033609523,https://www.cleanaway.com.au/location/byng-st-orange/,2024-08-09 13:18:02
SVC1146,Liquid waste services,Cleanaway Orange Liquid Waste Depot,NSW,2800,"28 Leewood Drive, Orange, NSW, 2800",-33.31265210461621,149.11038410411652,https://www.cleanaway.com.au/location/orange/,2024-08-09 13:18:07
SVC1147,Solid waste services,Cleanaway Oxley Solid Waste Services,QLD,4075,"2145 Ipswich Road, Oxley, QLD, 4075",-27.56361920076197,152.98561766604732,https://www.cleanaway.com.au/location/oxley/,2024-08-09 13:18:12
SVC1148,Liquid waste services,Cleanaway Padstow Liquid Waste Services,NSW,2211,"12 Stuart Street, Padstow, NSW, 2211",-33.94460372431617,151.03765259217488,https://www.cleanaway.com.au/location/padstow/,2024-08-09 13:18:18
SVC1149,Liquid waste services,Cleanaway Paget Mackay - Liquids Waste Services,QLD,4740,"Lot 3 Crichtons Rd, Paget, QLD, 4740",-21.192329001937534,149.16306718588277,https://www.cleanaway.com.au/location/pagetmackay/,2024-08-09 13:18:24
SVC1150,Miscellaneous,Cleanaway Paget Mackay - Solid Waste Services,QLD,4740,"Lot 3 Crichtons Rd, Paget, QLD, 4740",-21.19235356780925,149.16304804510474,https://www.cleanaway.com.au/location/cleanaway-paget-mackay-solid-waste-services/,2024-08-09 13:18:28
SVC1151,Miscellaneous,Parkes NSW,NSW,2600,"28 May Street, Parkes, NSW, 2600",-33.142893360569104,148.18106230338034,https://www.cleanaway.com.au/location/parkes/,2024-08-09 13:18:34
SVC1152,Liquid waste services,Cleanaway Parkeston - Liquid Waste Services,WA,6434,"Lot 33 Yarri Road, Parkeston, WA, 6434",-30.70977217952433,121.50860663517297,https://www.cleanaway.com.au/location/parkeston/,2024-08-09 13:18:38
SVC1152,Office,Cleanaway Parkeston - Liquid Waste Services,WA,6434,"Lot 33 Yarri Road, Parkeston, WA, 6434",-30.70977217952433,121.50860663517297,https://www.cleanaway.com.au/location/parkeston/,2024-08-09 13:18:38
SVC1153,Solid waste services,Cleanaway Parkhurst - Solid Waste Services,QLD,4701,"78 Waurn Street, Parkhurst, QLD, 4701",-23.33329659990984,150.50397830176257,https://www.cleanaway.com.au/location/parkhurst/,2024-08-09 13:18:43
SVC1154,Solid waste services,Cleanaway Peakhurst Solid Waste Depot,NSW,2210,"8-10 Depot Road, Mortdale, NSW, 2210",-33.967709135538854,151.06254519445952,https://www.cleanaway.com.au/location/peakhurst/,2024-08-09 13:18:50
SVC1155,Miscellaneous,Perth MRF,WA,6055,"72 Hyne Road, South Guildford, WA, 6055",-31.915738733432097,115.96737529065088,https://www.cleanaway.com.au/location/perth-material-recovery-facility/,2024-08-09 13:18:54
SVC1156,Office,Cleanaway Pinjarra,WA,6208,"Alocoa Access Road, South West Highway, Pinjarra, WA, 6208",-32.6599049,115.8285153,https://www.cleanaway.com.au/location/pinjarra/,2024-08-09 13:18:58
SVC1157,Solid waste services,Cleanaway Port Adelaide - Solid Waste Services,SA,5013,"2 Francis Rd, Wingfield SA 5013, Australia",-34.84442097392786,138.5429558408226,https://www.cleanaway.com.au/location/port-adelaide/,2024-08-09 13:19:02
SVC1158,Solid waste services,Cleanaway Port Augusta Solid Waste Transfer Station,SA,5710,"Lot 10 Footner Road, Port Augusta, SA, 5710",-32.505562227210376,137.81003601306412,https://www.cleanaway.com.au/location/stirling-north/,2024-08-09 13:19:06
SVC1159,Liquid waste services,Cleanaway Port Hedland Liquid & Technical Services,WA,6721,"20 Schillaman Street, Wedgefield, WA, 6721",-20.369430961371663,118.59883890532004,https://www.cleanaway.com.au/location/wedgefield/,2024-08-09 13:19:10
SVC1160,Solid waste services,Cleanaway Port Hedland Solid Waste Services,WA,6721,"18 Schillaman Street, Wedgefield, WA, 6721",-20.369511269408328,118.59762085464897,https://www.cleanaway.com.au/location/port-hedland/,2024-08-09 13:19:14
SVC1160,Office,Cleanaway Port Hedland Solid Waste Services,WA,6721,"18 Schillaman Street, Wedgefield, WA, 6721",-20.369511269408328,118.59762085464897,https://www.cleanaway.com.au/location/port-hedland/,2024-08-09 13:19:14
SVC1161,Liquid waste services,Cleanaway Port Kembla Liquid Waste Services,NSW,2505,"Recycling Area 21, Bluescope Steel, Springhill Road, Port Kembla, NSW, 2505",-34.45520241169187,150.87265678476146,https://www.cleanaway.com.au/location/port-kembla/,2024-08-09 13:19:21
SVC1162,Solid waste services,Cleanaway Portarlington Road Moolap Depot,VIC,3224,"317 Portarlington Road, Moolap, VIC, 3224",-38.16548988320143,144.42027733885604,https://www.cleanaway.com.au/location/moolap/,2024-08-09 13:19:25
SVC1163,Solid waste services,Cleanaway Portsmith Cairns Solid Waste Services,QLD,4870,"66 Fearnley Street, Portsmith Cairns, QLD, 4870",-16.935437983447315,145.77113796653825,https://www.cleanaway.com.au/location/portsmith/,2024-08-09 13:19:27
SVC1164,Liquid waste services,Cleanaway Queanbeyan Liquid Waste Depot,NSW,2620,"42B Aurora Ave, Queanbeyan, NSW, 2620",-35.33834372891299,149.24804793546613,https://www.cleanaway.com.au/location/queanbeyan/,2024-08-09 13:19:31
SVC1165,Miscellaneous,Cleanaway Ramsay SA,SA,5575,"Section 100 Dump Road, Ramsay, SA, 5575",-34.79998343337878,137.78792400506998,https://www.cleanaway.com.au/location/ramsay-sa/,2024-08-09 13:19:37
SVC1166,Miscellaneous,Cleanaway Ravenhall Melbourne Regional Landfill,VIC,3023,"1100-1152 Christies Road, Ravenhall, VIC, 3023",-37.78769471213414,144.7224335342535,https://www.cleanaway.com.au/location/ravenhall/,2024-08-09 13:19:39
SVC1167,Solid waste services,Cleanaway Rockdale Resource Recovery Centre,NSW,2116,"5 Lindsay Street, Rockdale. NSW 2116",-33.95829848119168,151.14379702769418,https://www.cleanaway.com.au/location/cleanaway-rockdale-resource-recovery-centre/,2024-08-09 13:19:43
SVC1168,Liquid waste services,Cleanaway Rockhampton NWO & ERS Liquid Waste Service,QLD,4700,"Dooley St & Robinson St, Rockhampton City, QLD, 4700",-23.36343280778461,150.50999940984047,https://www.cleanaway.com.au/location/rockhampton/,2024-08-09 13:19:48
SVC1169,Miscellaneous,Cleanaway Rokeby Technical and Environmental Services,TAS,7018,"8/73 Droughty Point Road, Rokeby, TAS, 7018",-42.90601824530805,147.4419780444115,https://www.cleanaway.com.au/location/rokeby/,2024-08-09 13:19:54
SVC1170,Industrial waste services,Cleanaway Roma Industrial Waste Services,QLD,4455,"27 - 31 Linton Street, Roma, QLD, 4455",-26.582765184930075,148.77704248162357,https://www.cleanaway.com.au/location/roma/,2024-08-09 13:20:00
SVC1171,Office,Cleanaway Rutherford Refinery,NSW,2320,"11 Kyle St, Rutherford, NSW, 2320",-32.710217045609525,151.49925201764503,https://www.cleanaway.com.au/location/rutherford-2/,2024-08-09 13:20:05
SVC1172,Liquid waste services,Cleanaway Rutherford Waste Oil Collection Facility,NSW,2320,"99 Kyle Street, Rutherford, NSW, 2320",-32.71265285026184,151.50138013401113,https://www.cleanaway.com.au/location/rutherford/,2024-08-09 13:20:09
SVC1173,Solid waste services,Cleanaway Ryde Resource Recovery Centre,NSW,2116,"145 Wicks Road, Ryde. NSW 2116",-33.78582925278756,151.1384890509105,https://www.cleanaway.com.au/location/cleanaway-ryde-resource-recovery-centre/,2024-08-09 13:20:13
SVC1174,Office,Cleanaway Seymour Solid Waste Service,VIC,3660,"61 Emily Street, Seymour, VIC, 3660",-37.01818700175218,145.1333478275846,https://www.cleanaway.com.au/location/seymour/,2024-08-09 13:20:16
SVC1175,Office,Cleanaway Shepparton Solid Waste Services,VIC,3630,"73 Old Dookie Road, Shepparton, VIC, 3630",-36.3770390454234,145.42430774486468,https://www.cleanaway.com.au/location/shepparton/,2024-08-09 13:20:20
SVC1176,Solid waste services,Cleanaway Skips,SA,5007,"158 Frederick Street, Welland, SA, 5007",-34.910169021919465,138.55829289857417,https://www.cleanaway.com.au/location/welland/,2024-08-09 13:20:25
SVC1177,Miscellaneous,Cleanaway Smythesdale,VIC,3351,"1380 Glenelg Highway, Smythesdale, VIC, 3351",-37.65206,143.6704,https://www.cleanaway.com.au/location/smythesdale/,2024-08-09 13:20:31
SVC1178,Solid waste services,Cleanaway Somersby Municipal Waste Collections Services,NSW,2250,"75 Pile Rd, Somersby, NSW, 2250",-33.40841394319126,151.28472585168598,https://www.cleanaway.com.au/location/somersby/,2024-08-09 13:20:37
SVC1179,Solid waste services,Cleanaway South Geelong Resource Recovery Transfer Station,VIC,3220,"22 Wood St, South Geelong VIC 3220",-38.16898778012702,144.36845541153232,https://www.cleanaway.com.au/location/south-geelong/,2024-08-09 13:20:42
SVC1180,Solid waste services,Cleanaway South Kempsey – Solid Waste Services,NSW,2440,"42 South Street, South Kempsey, NSW, 2440",-31.100181076598474,152.82570354747952,https://www.cleanaway.com.au/location/kempsey/,2024-08-09 13:20:48
SVC1180,Office,Cleanaway South Kempsey – Solid Waste Services,NSW,2440,"42 South Street, South Kempsey, NSW, 2440",-31.100181076598474,152.82570354747952,https://www.cleanaway.com.au/location/kempsey/,2024-08-09 13:20:48
SVC1181,Liquid waste services,Cleanaway South Windsor Liquid Waste Services,NSW,2756,"Corner of Blackman Crescent and Fairey road, South Windsor, NSW, 2756",-33.62512997774327,150.8148539135821,https://www.cleanaway.com.au/location/south-windsor/,2024-08-09 13:20:53
SVC1182,Miscellaneous,Cleanaway Southwest Solid Waste Services,WA,6229,"Lot 171 Boyanup, Picton Rd,Picton, WA, 6229",-33.353242124525,115.69951020544082,https://www.cleanaway.com.au/location/bunbury/,2024-08-09 13:20:55
SVC1183,Hazardous Soil Treatment,Cleanaway St Marys Industrial and Technical Waste Services,NSW,2760,"42-46 Charles Street, St Marys, NSW, 2760",-33.7443541093107,150.76981404654026,https://www.cleanaway.com.au/location/st-marys/,2024-08-09 13:20:59
SVC1183,Industrial Waste Services Depot,Cleanaway St Marys Industrial and Technical Waste Services,NSW,2760,"42-46 Charles Street, St Marys, NSW, 2760",-33.7443541093107,150.76981404654026,https://www.cleanaway.com.au/location/st-marys/,2024-08-09 13:20:59
SVC1184,Liquid waste services,Cleanaway St Marys Liquid Waste Services,NSW,2760,"40 Christie Street, St Marys, NSW, 2760",-33.74794369397784,150.77082641563322,https://www.cleanaway.com.au/location/st-marys-liquid-waste-services/,2024-08-09 13:21:04
SVC1185,Liquid waste services,Cleanaway Stratford - Liquid Waste Services,QLD,4870,"63 Greenbank Rd, Stratford, QLD, 4870",-16.86956135933898,145.74046373897224,https://www.cleanaway.com.au/location/stratford/,2024-08-09 13:21:09
SVC1186,Industrial waste services,Cleanaway Sunshine West Industrial Waste Services,VIC,3013,"16 Industrial Drive, Sunshine West, VIC, 3013",-37.81026713090877,144.81531514946656,https://www.cleanaway.com.au/location/sunshine-west/,2024-08-09 13:21:13
SVC1187,Solid waste services,Cleanaway Swan Hill Solid Waste Services,VIC,3585,"21 Quin Drive, Swan Hill, VIC, 3585",-35.34504393650596,143.53471054108584,https://www.cleanaway.com.au/location/cleanaway-swan-hill/,2024-08-09 13:21:18
SVC1188,Industrial waste services,Cleanaway Sydney Olympic Park - Industrial Waste Services,NSW,2127,"cnr Hill Rd & Pondage Link, Sydney Olympic Park, NSW, 2127",-33.84232190103701,151.05902325980506,https://www.cleanaway.com.au/location/sydney-olympic-park/,2024-08-09 13:21:21
SVC1189,Miscellaneous,Cleanaway Tamworth @Gunnedah Rd - Solid waste service,NSW,2340,"31 Gunnedah Rd, Taminda, NSW, 2340",-31.09587265228226,150.90517033569827,https://www.cleanaway.com.au/location/tamworth-2/,2024-08-09 13:21:25
SVC1190,Solid waste services,Cleanaway Tamworth - Solid Waste Services,NSW,2340,"13 Anson Street, Taminda, NSW, 2340",-31.089898679901008,150.91054136266985,https://www.cleanaway.com.au/location/tamworth/,2024-08-09 13:21:29
SVC1191,Liquid waste services,Cleanaway Thomastown Grease Trap Services,VIC,3074,"11 Chaffey Street, Thomastown, VIC, 3074",-37.68991455100399,145.00463870412375,https://www.cleanaway.com.au/location/thomastown/,2024-08-09 13:21:33
SVC1192,Office,Thurla,VIC,3496,"428 Magnum Avenue (Koorlong), Thurla, VIC, 3496",-34.33924442041548,142.0981279276598,https://www.cleanaway.com.au/location/thurla/,2024-08-09 13:21:37
SVC1193,Transfer Station,Thurla Solid Waste Services,VIC,3496,"428 Magnum Avenue (Koorlong), Thurla, VIC, 3496",-34.33924552522761,142.09812723192783,https://www.cleanaway.com.au/location/thurla-solid-waste-services/,2024-08-09 13:21:42
SVC1193,Office,Thurla Solid Waste Services,VIC,3496,"428 Magnum Avenue (Koorlong), Thurla, VIC, 3496",-34.33924552522761,142.09812723192783,https://www.cleanaway.com.au/location/thurla-solid-waste-services/,2024-08-09 13:21:42
SVC1193,Public Waste Drop-off,Thurla Solid Waste Services,VIC,3496,"428 Magnum Avenue (Koorlong), Thurla, VIC, 3496",-34.33924552522761,142.09812723192783,https://www.cleanaway.com.au/location/thurla-solid-waste-services/,2024-08-09 13:21:42
SVC1193,Commercial Waste Drop-off,Thurla Solid Waste Services,VIC,3496,"428 Magnum Avenue (Koorlong), Thurla, VIC, 3496",-34.33924552522761,142.09812723192783,https://www.cleanaway.com.au/location/thurla-solid-waste-services/,2024-08-09 13:21:42
SVC1194,Liquid waste services,Cleanaway Toowoomba – Liquid Waste Services,QLD,4350,"27-35 Wilkinson St, Toowoomba, QLD, 4350",-27.536491358819948,151.9509750038121,https://www.cleanaway.com.au/location/toowoomba/,2024-08-09 13:21:48
SVC1195,Miscellaneous,Cleanaway Townsville NQRR,QLD,4818,"96-102 Enterprise Street, Bohle, QLD, 4818",-19.254110478190437,146.71308489997946,https://www.cleanaway.com.au/location/townsville-nqrr/,2024-08-09 13:21:52
SVC1196,Solid waste services,Cleanaway Tullamarine Solid Waste Depot,VIC,3043,"206-300 Western Avenue, Tullamarine, VIC, 3043",-37.67575651293539,144.86538768532327,https://www.cleanaway.com.au/location/tullamarine/,2024-08-09 13:21:58
SVC1196,Office,Cleanaway Tullamarine Solid Waste Depot,VIC,3043,"206-300 Western Avenue, Tullamarine, VIC, 3043",-37.67575651293539,144.86538768532327,https://www.cleanaway.com.au/location/tullamarine/,2024-08-09 13:21:58
SVC1197,Miscellaneous,Cleanaway Unanderra – Medical Waste Services,NSW,2526,"10-14 Industrial Road, Unanderra, NSW, 2526",-34.463930429547275,150.85618033057716,https://www.cleanaway.com.au/location/industrial-road-unanderra/,2024-08-09 13:22:04
SVC1198,Solid waste services,Cleanaway Unanderra Waste Depot - Solid Waste Services,NSW,2526,"5 Charcoal Close, Unanderra, NSW, 2526",-34.45884306921514,150.8530455657857,https://www.cleanaway.com.au/location/unanderra/,2024-08-09 13:22:10
SVC1199,Liquid waste services,Cleanaway Unanderra Waynote Place Industrial Services,NSW,2526,"10-12 Waynote Place, Unanderra, NSW, 2526",-34.460265,150.8633155,https://www.cleanaway.com.au/location/unanderra-3/,2024-08-09 13:22:14
SVC1199,Industrial waste services,Cleanaway Unanderra Waynote Place Industrial Services,NSW,2526,"10-12 Waynote Place, Unanderra, NSW, 2526",-34.460265,150.8633155,https://www.cleanaway.com.au/location/unanderra-3/,2024-08-09 13:22:14
SVC1199,Office,Cleanaway Unanderra Waynote Place Industrial Services,NSW,2526,"10-12 Waynote Place, Unanderra, NSW, 2526",-34.460265,150.8633155,https://www.cleanaway.com.au/location/unanderra-3/,2024-08-09 13:22:14
SVC1200,Solid waste services,Cleanaway Wagga Wagga - Solid Waste Services,NSW,2650,"9 Schiller Street, Wagga Wagga NSW 2650 Australia",-35.12764190922321,147.4136964940244,https://www.cleanaway.com.au/location/wagga-wagga/,2024-08-09 13:22:19
SVC1201,Miscellaneous,Cleanaway Warooka Waste Transfer Station & Recycling Centre,SA,5577,"Tuckokcowie Road, Warooka, SA, 5577",-34.991525609567866,137.42958691778773,https://www.cleanaway.com.au/location/warooka-sa/,2024-08-09 13:22:25
SVC1202,Miscellaneous,Cleanaway Warrnambool Bin Hire and Waste Drop Off,VIC,3280,"355 Koroit Street, Warrnambool VIC 3280",-38.37571400011774,142.46415810075274,https://www.cleanaway.com.au/location/warrnambool/,2024-08-09 13:22:29
SVC1203,Miscellaneous,Cleanaway Wetherill Park Waste Motor Oil Recycling,NSW,2164,"6 Davis Road/2 Wenban Place, Wetherill Park, NSW, 2164",-33.837152894458214,150.90440315644275,https://www.cleanaway.com.au/location/wetherill-park/,2024-08-09 13:22:35
SVC1204,Industrial waste services,Cleanaway Whyalla One Steel - Industrial Waste Services,SA,5601,"27 Bowers Court, Whyalla Barson, SA, 5601",-33.008009,137.572109,https://www.cleanaway.com.au/location/whyalla-one-steel-cleanaway/,2024-08-09 13:22:41
SVC1205,Liquid waste services,Cleanaway Whyalla Playford Industrial Services,SA,5600,"132B Norrie Avenue, Whyalla, SA, 5600",-33.038010670814074,137.55243296595594,https://www.cleanaway.com.au/location/whyalla/,2024-08-09 13:22:47
SVC1206,Solid waste services,Cleanaway Willawong Recycling & Transfer Station,QLD,4068,"343 Bowhill Road, Willawong, QLD, 4068",-27.58283611493861,152.99688907576672,https://www.cleanaway.com.au/location/willawong/,2024-08-09 13:22:51
SVC1207,Liquid waste services,Cleanaway Wingfield – Liquid Waste Services,SA,5013,"20 George Street, Wingfield, SA, 5013",-34.83475550287251,138.56438246007562,https://www.cleanaway.com.au/location/wingfield-2/,2024-08-09 13:22:55
SVC1207,Office,Cleanaway Wingfield – Liquid Waste Services,SA,5013,"20 George Street, Wingfield, SA, 5013",-34.83475550287251,138.56438246007562,https://www.cleanaway.com.au/location/wingfield-2/,2024-08-09 13:22:55
SVC1208,Transfer Station,Wingfield Resource Recovery Centre,SA,5013,"Hanson Road, Wingfield, SA 5013",-34.83065925891953,138.54731182037293,https://www.cleanaway.com.au/location/wingfield/,2024-08-09 13:22:59
SVC1209,Industrial waste services,Cleanaway Wodonga Industrial Waste Services,VIC,3690,"2/9 Romet Road, Wodonga, VIC, 3690",-36.11166500739213,146.85815657030102,https://www.cleanaway.com.au/location/wodonga/,2024-08-09 13:23:03
SVC1210,Solid waste services,Cleanaway Wyong Solid Waste Depot,NSW,2259,"1 Amsterdam Circuit, Wyong, NSW, 2259",-33.264526357566275,151.45145710619676,https://www.cleanaway.com.au/location/wyong/,2024-08-09 13:23:08
SVC1210,Office,Cleanaway Wyong Solid Waste Depot,NSW,2259,"1 Amsterdam Circuit, Wyong, NSW, 2259",-33.264526357566275,151.45145710619676,https://www.cleanaway.com.au/location/wyong/,2024-08-09 13:23:08
SVC1211,Liquid waste services,Cleanaway Yatala Liquid Waste Services,QLD,4207,"29 Binary St, Yatala, QLD, 4207",-27.75764941916953,153.23397267269092,https://www.cleanaway.com.au/location/yatala/,2024-08-09 13:23:12
SVC1212,Solid waste services,Cleanaway Young Solid Waste Services,NSW,2594,"20 Chillingworks Rd, Young, NSW, 2594",-34.30134824214955,148.2713198766994,https://www.cleanaway.com.au/location/young-nsw/,2024-08-09 13:23:18
SVC1213,Miscellaneous,Melbourne Energy & Resource Centre,VIC,3750,"510 Summerhill Road, Wollert VIC 3750",-37.57592265294685,144.97817345499203,https://www.cleanaway.com.au/location/melbourne-energy-and-resource-centre/,2024-08-09 13:23:22
